[{"id":1,"name":"InnoZ","phone":"4155896724","location":{"country":"United States","state":"California","city":"Oakland","address":"62 Waywood Court"},"description":"Maecenas ut massa quis augue luctus tincidunt. Nulla mollis molestie lorem. Quisque ut erat.\n\nCurabitur gravida nisi at nibh. In hac habitasse platea dictumst. Aliquam augue quam, sollicitudin vitae, consectetuer eget, rutrum at, lorem.","logo":"http://dummyimage.com/150x249.png/5fa2dd/ffffff","created":{"idAdmin":7,"timestamp":"2021-06-26T07:44:43Z"},"modified":{"idAdmin":88,"timestamp":"2021-10-12T11:00:43Z"}},
{"id":2,"name":"Dynabox","phone":"3177141633","location":{"country":"United States","state":"Indiana","city":"Indianapolis","address":"5222 Hanover Drive"},"description":"Suspendisse potenti. In eleifend quam a odio. In hac habitasse platea dictumst.\n\nMaecenas ut massa quis augue luctus tincidunt. Nulla mollis molestie lorem. Quisque ut erat.","logo":"http://dummyimage.com/211x221.png/5fa2dd/ffffff","created":{"idAdmin":79,"timestamp":"2021-04-26T01:15:53Z"},"modified":{"idAdmin":22,"timestamp":"2021-05-15T01:41:50Z"}},
{"id":3,"name":"Dynazzy","phone":"4141788838","location":{"country":"United States","state":"Wisconsin","city":"Milwaukee","address":"247 Delladonna Hill"},"description":"Nulla ut erat id mauris vulputate elementum. Nullam varius. Nulla facilisi.","logo":"http://dummyimage.com/219x148.png/dddddd/000000","created":{"idAdmin":33,"timestamp":"2021-10-11T18:01:35Z"},"modified":{"idAdmin":83,"timestamp":"2021-02-11T05:12:49Z"}},
{"id":4,"name":"Zooveo","phone":"3024718274","location":{"country":"United States","state":"Delaware","city":"Wilmington","address":"61 Knutson Alley"},"description":"Lorem ipsum dolor sit amet, consectetuer adipiscing elit. Proin risus. Praesent lectus.\n\nVestibulum quam sapien, varius ut, blandit non, interdum in, ante. Vestibulum ante ipsum primis in faucibus orci luctus et ultrices posuere cubilia Curae; Duis faucibus accumsan odio. Curabitur convallis.","logo":"http://dummyimage.com/101x143.png/cc0000/ffffff","created":{"idAdmin":23,"timestamp":"2021-07-01T10:31:47Z"},"modified":{"idAdmin":57,"timestamp":"2021-06-12T03:47:33Z"}},
{"id":5,"name":"Dynava","phone":"2146756926","location":{"country":"United States","state":"Texas","city":"Dallas","address":"161 Weeping Birch Road"},"description":"Suspendisse potenti. In eleifend quam a odio. In hac habitasse platea dictumst.","logo":"http://dummyimage.com/186x146.png/cc0000/ffffff","created":{"idAdmin":49,"timestamp":"2021-10-24T18:01:19Z"},"modified":{"idAdmin":26,"timestamp":"2021-09-18T07:37:52Z"}},
{"id":6,"name":"Mita","phone":"6506595405","location":{"country":"United States","state":"California","city":"Redwood City","address":"36 John Wall Road"},"description":"Nullam porttitor lacus at turpis. Donec posuere metus vitae ipsum. Aliquam non mauris.\n\nMorbi non lectus. Aliquam sit amet diam in magna bibendum imperdiet. Nullam orci pede, venenatis non, sodales sed, tincidunt eu, felis.\n\nFusce posuere felis sed lacus. Morbi sem mauris, laoreet ut, rhoncus aliquet, pulvinar sed, nisl. Nunc rhoncus dui vel sem.","logo":"http://dummyimage.com/178x217.png/dddddd/000000","created":{"idAdmin":95,"timestamp":"2021-03-22T14:45:54Z"},"modified":{"idAdmin":70,"timestamp":"2020-12-24T22:07:23Z"}},
{"id":7,"name":"Eire","phone":"3142504277","location":{"country":"United States","state":"Missouri","city":"Saint Louis","address":"0 Esker Point"},"description":"Nullam sit amet turpis elementum ligula vehicula consequat. Morbi a ipsum. Integer a nibh.","logo":"http://dummyimage.com/151x122.png/ff4444/ffffff","created":{"idAdmin":68,"timestamp":"2021-10-31T16:55:48Z"},"modified":{"idAdmin":36,"timestamp":"2021-08-14T03:46:39Z"}},
{"id":8,"name":"Wikizz","phone":"3187303904","location":{"country":"United States","state":"Massachusetts","city":"Boston","address":"8 Service Terrace"},"description":"Maecenas leo odio, condimentum id, luctus nec, molestie sed, justo. Pellentesque viverra pede ac diam. Cras pellentesque volutpat dui.\n\nMaecenas tristique, est et tempus semper, est quam pharetra magna, ac consequat metus sapien ut nunc. Vestibulum ante ipsum primis in faucibus orci luctus et ultrices posuere cubilia Curae; Mauris viverra diam vitae quam. Suspendisse potenti.\n\nNullam porttitor lacus at turpis. Donec posuere metus vitae ipsum. Aliquam non mauris.","logo":"http://dummyimage.com/175x112.png/cc0000/ffffff","created":{"idAdmin":22,"timestamp":"2021-03-31T09:30:54Z"},"modified":{"idAdmin":2,"timestamp":"2021-08-18T18:32:10Z"}},
{"id":9,"name":"Meedoo","phone":"3101131596","location":{"country":"United States","state":"California","city":"Inglewood","address":"3791 Farwell Drive"},"description":"Duis aliquam convallis nunc. Proin at turpis a pede posuere nonummy. Integer non velit.\n\nDonec diam neque, vestibulum eget, vulputate ut, ultrices vel, augue. Vestibulum ante ipsum primis in faucibus orci luctus et ultrices posuere cubilia Curae; Donec pharetra, magna vestibulum aliquet ultrices, erat tortor sollicitudin mi, sit amet lobortis sapien sapien non mi. Integer ac neque.\n\nDuis bibendum. Morbi non quam nec dui luctus rutrum. Nulla tellus.","logo":"http://dummyimage.com/153x233.png/cc0000/ffffff","created":{"idAdmin":35,"timestamp":"2021-03-04T15:17:10Z"},"modified":{"idAdmin":44,"timestamp":"2020-12-05T19:31:14Z"}},
{"id":10,"name":"Babbleblab","phone":"8013915103","location":{"country":"United States","state":"Utah","city":"Salt Lake City","address":"7 Hoard Road"},"description":"Maecenas tristique, est et tempus semper, est quam pharetra magna, ac consequat metus sapien ut nunc. Vestibulum ante ipsum primis in faucibus orci luctus et ultrices posuere cubilia Curae; Mauris viverra diam vitae quam. Suspendisse potenti.","logo":"http://dummyimage.com/153x102.png/cc0000/ffffff","created":{"idAdmin":2,"timestamp":"2021-01-12T15:07:01Z"},"modified":{"idAdmin":1,"timestamp":"2021-07-28T19:01:07Z"}},
{"id":11,"name":"Ozu","phone":"7346540398","location":{"country":"United States","state":"Michigan","city":"Detroit","address":"1 Surrey Pass"},"description":"In hac habitasse platea dictumst. Etiam faucibus cursus urna. Ut tellus.","logo":"http://dummyimage.com/166x154.png/ff4444/ffffff","created":{"idAdmin":1,"timestamp":"2021-04-17T07:36:46Z"},"modified":{"idAdmin":56,"timestamp":"2021-06-22T14:47:09Z"}},
{"id":12,"name":"Plambee","phone":"5174179190","location":{"country":"United States","state":"Michigan","city":"Lansing","address":"5 Welch Alley"},"description":"Integer tincidunt ante vel ipsum. Praesent blandit lacinia erat. Vestibulum sed magna at nunc commodo placerat.\n\nPraesent blandit. Nam nulla. Integer pede justo, lacinia eget, tincidunt eget, tempus vel, pede.","logo":"http://dummyimage.com/245x106.png/5fa2dd/ffffff","created":{"idAdmin":32,"timestamp":"2021-11-05T11:41:22Z"},"modified":{"idAdmin":82,"timestamp":"2021-08-19T21:14:08Z"}},
{"id":13,"name":"Bubblemix","phone":"5013779284","location":{"country":"United States","state":"Arkansas","city":"North Little Rock","address":"449 Garrison Junction"},"description":"Etiam vel augue. Vestibulum rutrum rutrum neque. Aenean auctor gravida sem.\n\nPraesent id massa id nisl venenatis lacinia. Aenean sit amet justo. Morbi ut odio.\n\nCras mi pede, malesuada in, imperdiet et, commodo vulputate, justo. In blandit ultrices enim. Lorem ipsum dolor sit amet, consectetuer adipiscing elit.","logo":"http://dummyimage.com/158x146.png/dddddd/000000","created":{"idAdmin":68,"timestamp":"2021-10-21T00:43:52Z"},"modified":{"idAdmin":20,"timestamp":"2021-02-01T06:14:51Z"}},
{"id":14,"name":"Realfire","phone":"3254057636","location":{"country":"United States","state":"Texas","city":"Abilene","address":"18161 Raven Crossing"},"description":"Integer tincidunt ante vel ipsum. Praesent blandit lacinia erat. Vestibulum sed magna at nunc commodo placerat.\n\nPraesent blandit. Nam nulla. Integer pede justo, lacinia eget, tincidunt eget, tempus vel, pede.","logo":"http://dummyimage.com/176x119.png/5fa2dd/ffffff","created":{"idAdmin":33,"timestamp":"2021-05-18T18:28:39Z"},"modified":{"idAdmin":82,"timestamp":"2020-11-30T14:58:23Z"}},
{"id":15,"name":"Devpulse","phone":"6173559812","location":{"country":"United States","state":"Massachusetts","city":"Boston","address":"881 Elgar Center"},"description":"Aenean lectus. Pellentesque eget nunc. Donec quis orci eget orci vehicula condimentum.\n\nCurabitur in libero ut massa volutpat convallis. Morbi odio odio, elementum eu, interdum eu, tincidunt in, leo. Maecenas pulvinar lobortis est.","logo":"http://dummyimage.com/164x240.png/5fa2dd/ffffff","created":{"idAdmin":27,"timestamp":"2021-09-01T18:52:13Z"},"modified":{"idAdmin":17,"timestamp":"2020-11-12T12:11:23Z"}},
{"id":16,"name":"Riffwire","phone":"3044875266","location":{"country":"United States","state":"West Virginia","city":"Charleston","address":"98148 Bonner Lane"},"description":"Proin interdum mauris non ligula pellentesque ultrices. Phasellus id sapien in sapien iaculis congue. Vivamus metus arcu, adipiscing molestie, hendrerit at, vulputate vitae, nisl.\n\nAenean lectus. Pellentesque eget nunc. Donec quis orci eget orci vehicula condimentum.\n\nCurabitur in libero ut massa volutpat convallis. Morbi odio odio, elementum eu, interdum eu, tincidunt in, leo. Maecenas pulvinar lobortis est.","logo":"http://dummyimage.com/161x164.png/dddddd/000000","created":{"idAdmin":91,"timestamp":"2021-08-25T19:40:39Z"},"modified":{"idAdmin":61,"timestamp":"2020-11-02T14:46:18Z"}},
{"id":17,"name":"Quire","phone":"5054404330","location":{"country":"United States","state":"New Mexico","city":"Albuquerque","address":"798 Pierstorff Crossing"},"description":"Pellentesque at nulla. Suspendisse potenti. Cras in purus eu magna vulputate luctus.\n\nCum sociis natoque penatibus et magnis dis parturient montes, nascetur ridiculus mus. Vivamus vestibulum sagittis sapien. Cum sociis natoque penatibus et magnis dis parturient montes, nascetur ridiculus mus.\n\nEtiam vel augue. Vestibulum rutrum rutrum neque. Aenean auctor gravida sem.","logo":"http://dummyimage.com/108x237.png/cc0000/ffffff","created":{"idAdmin":84,"timestamp":"2021-10-20T18:54:41Z"},"modified":{"idAdmin":74,"timestamp":"2021-10-10T06:36:01Z"}},
{"id":18,"name":"Mymm","phone":"8147467368","location":{"country":"United States","state":"Pennsylvania","city":"Erie","address":"95225 Hermina Plaza"},"description":"Sed sagittis. Nam congue, risus semper porta volutpat, quam pede lobortis ligula, sit amet eleifend pede libero quis orci. Nullam molestie nibh in lectus.\n\nPellentesque at nulla. Suspendisse potenti. Cras in purus eu magna vulputate luctus.\n\nCum sociis natoque penatibus et magnis dis parturient montes, nascetur ridiculus mus. Vivamus vestibulum sagittis sapien. Cum sociis natoque penatibus et magnis dis parturient montes, nascetur ridiculus mus.","logo":"http://dummyimage.com/102x149.png/cc0000/ffffff","created":{"idAdmin":49,"timestamp":"2021-08-03T09:18:10Z"},"modified":{"idAdmin":58,"timestamp":"2021-08-05T11:12:50Z"}},
{"id":19,"name":"Mita","phone":"4143728620","location":{"country":"United States","state":"Wisconsin","city":"Milwaukee","address":"49 Lakeland Point"},"description":"In quis justo. Maecenas rhoncus aliquam lacus. Morbi quis tortor id nulla ultrices aliquet.","logo":"http://dummyimage.com/105x194.png/cc0000/ffffff","created":{"idAdmin":63,"timestamp":"2021-03-26T16:31:24Z"},"modified":{"idAdmin":100,"timestamp":"2021-03-07T19:56:40Z"}},
{"id":20,"name":"Kaymbo","phone":"8016841953","location":{"country":"United States","state":"Utah","city":"Provo","address":"488 Bayside Center"},"description":"In hac habitasse platea dictumst. Morbi vestibulum, velit id pretium iaculis, diam erat fermentum justo, nec condimentum neque sapien placerat ante. Nulla justo.\n\nAliquam quis turpis eget elit sodales scelerisque. Mauris sit amet eros. Suspendisse accumsan tortor quis turpis.\n\nSed ante. Vivamus tortor. Duis mattis egestas metus.","logo":"http://dummyimage.com/217x127.png/cc0000/ffffff","created":{"idAdmin":7,"timestamp":"2021-01-05T18:52:09Z"},"modified":{"idAdmin":31,"timestamp":"2021-07-26T02:48:12Z"}}]